[
  { "name": "Tabriz", "code": "tabriz", "lat": "38.066667", "lng": "46.300000" },
  { "name": "Maragheh", "code": "maragheh", "lat": "37.391944", "lng": "46.239167" },
  { "name": "Mianeh", "code": "mianeh", "lat": "37.421111", "lng": "47.715000" },
  { "name": "Shabestar", "code": "shabestar", "lat": "38.180278", "lng": "45.702778" },
  { "name": "Marand", "code": "marand", "lat": "38.425000", "lng": "45.768611" },
  { "name": "Jolfa", "code": "jolfa", "lat": "38.940278", "lng": "45.630833" },
  { "name": "Sarab", "code": "sarab", "lat": "37.940833", "lng": "47.536667" },
  { "name": "Hadishahr", "code": "hadishahr", "lat": "38.847778", "lng": "45.662222" },
  { "name": "Bonab", "code": "bonab", "lat": "37.340278", "lng": "46.056111" },
  { "name": "Tasuuj", "code": "tasuuj", "lat": "38.185556", "lng": "45.213611" },
  { "name": "Ahar", "code": "ahar", "lat": "38.475000", "lng": "47.068056" },
  { "name": "Heris", "code": "heris", "lat": "38.248056", "lng": "47.116667" },
  { "name": "Hashtrud", "code": "hashtrud", "lat": "37.477778", "lng": "47.050833" },
  { "name": "Malekan", "code": "malekan", "lat": "37.141667", "lng": "46.103611" },
  { "name": "Bostanabad", "code": "bostanabad", "lat": "37.846389", "lng": "46.835278" },
  { "name": "Varzaqan", "code": "varzaqan", "lat": "38.506389", "lng": "46.653611" },
  { "name": "Osku", "code": "osku", "lat": "37.915833", "lng": "46.123611" },
  { "name": "Mamqan", "code": "mamqan", "lat": "37.843889", "lng": "45.974722" },
  { "name": "Sufian", "code": "sufian", "lat": "38.276944", "lng": "45.981389" },
  { "name": "Ilkhchi", "code": "ilkhchi", "lat": "37.939722", "lng": "45.978611" },
  { "name": "Khosrowshahr", "code": "khosrowshahr", "lat": "37.951111", "lng": "46.051111" },
  { "name": "Basmenj", "code": "basmenj", "lat": "37.984444", "lng": "46.492222" },
  { "name": "Sahand", "code": "sahand", "lat": "37.943889", "lng": "46.124722" },
  { "name": "Urmia", "code": "urmia", "lat": "37.555278", "lng": "45.076111" },
  { "name": "Naqadeh", "code": "naqadeh", "lat": "36.955278", "lng": "45.388056" },
  { "name": "Maku", "code": "maku", "lat": "39.295000", "lng": "44.516389" },
  { "name": "Takab", "code": "takab", "lat": "36.400833", "lng": "47.113056" },
  { "name": "Khouy", "code": "khouy", "lat": "38.550278", "lng": "44.951944" },
  { "name": "Mahabad", "code": "mahabad", "lat": "36.763056", "lng": "45.722222" },
  { "name": "Sardasht", "code": "sardasht", "lat": "36.155278", "lng": "45.478889" },
  { "name": "Chaldoran", "code": "chaldoran", "lat": "39.066389", "lng": "44.381667" },
  { "name": "Bukan", "code": "bukan", "lat": "36.521111", "lng": "46.208889" },
  { "name": "Miandoab", "code": "miandoab", "lat": "36.966667", "lng": "46.109722" },
  { "name": "Salmas", "code": "salmas", "lat": "38.197222", "lng": "44.765278" },
  { "name": "Shahin Dezh", "code": "shahin-dezh", "lat": "36.679167", "lng": "46.566389" },
  { "name": "Piranshahr", "code": "piranshahr", "lat": "36.701111", "lng": "45.141389" },
  { "name": "Oshnavieh", "code": "oshnavieh", "lat": "37.039722", "lng": "45.098333" },
  { "name": "Poldasht", "code": "poldasht", "lat": "39.348056", "lng": "45.071111" },
  { "name": "Ardabil", "code": "ardabil", "lat": "38.250000", "lng": "48.300000" },
  { "name": "Parsabad", "code": "parsabad", "lat": "39.643333", "lng": "47.917500" },
  { "name": "Khalkhal", "code": "khalkhal", "lat": "37.618889", "lng": "48.525833" },
  { "name": "Meshginshahr", "code": "meshginshahr", "lat": "38.398889", "lng": "47.681944" },
  { "name": "Namin", "code": "namin", "lat": "38.426944", "lng": "48.483889" },
  { "name": "Nir", "code": "nir", "lat": "38.033611", "lng": "47.998611" },
  { "name": "Germi", "code": "germi", "lat": "39.023889", "lng": "48.079444" },
  { "name": "Isfahan", "code": "isfahan", "lat": "32.653889", "lng": "51.666389" },
  { "name": "Falavarjan", "code": "falavarjan", "lat": "32.555278", "lng": "51.509722" },
  { "name": "Golpayegan", "code": "golpayegan", "lat": "33.453611", "lng": "50.288333" },
  { "name": "Dehaqan", "code": "dehaqan", "lat": "31.940278", "lng": "51.647778" },
  { "name": "Natanz", "code": "natanz", "lat": "33.510556", "lng": "51.916389" },
  { "name": "Tiran", "code": "tiran", "lat": "32.702222", "lng": "51.153056" },
  { "name": "Kashan", "code": "kashan", "lat": "33.983333", "lng": "51.433333" },
  { "name": "Ardestan", "code": "ardestan", "lat": "33.376111", "lng": "52.372500" },
  { "name": "Semirom", "code": "semirom", "lat": "31.416667", "lng": "51.566667" },
  { "name": "Dorcheh", "code": "dorcheh", "lat": "32.615278", "lng": "51.555556" },
  { "name": "Kuhepayeh", "code": "kuhepayeh", "lat": "32.716667", "lng": "52.433333" },
  { "name": "Mobarakeh", "code": "mobarakeh", "lat": "32.346389", "lng": "51.504444" },
  { "name": "Shahreza", "code": "shahreza", "lat": "32.008889", "lng": "51.866944" },
  { "name": "Khomeyni Shahr", "code": "khomeyni-shahr", "lat": "32.700000", "lng": "51.521111" },
  { "name": "Najafabad", "code": "najafabad", "lat": "32.634444", "lng": "51.365000" },
  { "name": "Zarrinshahr", "code": "zarrinshahr", "lat": "32.389722", "lng": "51.376667" },
  { "name": "Aran va Bidgol", "code": "aran-va-bidgol", "lat": "34.057778", "lng": "51.484167" },
  { "name": "Bagh-e Bahadoran", "code": "bagh-e-bahadoran", "lat": "32.376944", "lng": "51.188889" },
  { "name": "Khansar", "code": "khansar", "lat": "33.220556", "lng": "50.315000" },
  { "name": "Alavijeh", "code": "alavijeh", "lat": "33.053611", "lng": "51.083056" },
  { "name": "Asgaran", "code": "asgaran", "lat": "32.520000", "lng": "50.510000" },
  { "name": "Hajiabad", "code": "hajiabad", "lat": "28.357222", "lng": "54.423611" },
  { "name": "Tudeshk", "code": "tudeshk", "lat": "32.716944", "lng": "52.677778" },
  { "name": "Varzaneh", "code": "varzaneh", "lat": "32.420556", "lng": "52.648611" },
  { "name": "Ilam", "code": "ilam", "lat": "33.637500", "lng": "46.415556" },
  { "name": "Mehran", "code": "mehran", "lat": "33.122222", "lng": "46.164722" },
  { "name": "Dehloran", "code": "dehloran", "lat": "32.694167", "lng": "47.267778" },
  { "name": "Abdanan", "code": "abdanan", "lat": "32.992500", "lng": "47.419722" },
  { "name": "Darreh Shahr", "code": "darreh-shahr", "lat": "33.139722", "lng": "47.376111" },
  { "name": "Eyvan", "code": "eyvan", "lat": "33.827222", "lng": "46.309722" },
  { "name": "Sarableh", "code": "sarableh", "lat": "33.766389", "lng": "46.565556" },
  { "name": "Bushehr", "code": "bushehr", "lat": "28.968333", "lng": "50.836667" },
  { "name": "Deyr", "code": "deyr", "lat": "27.839722", "lng": "51.937778" },
  { "name": "Kangan", "code": "kangan", "lat": "27.833889", "lng": "52.063056" },
  { "name": "Genaveh", "code": "genaveh", "lat": "29.578056", "lng": "50.516944" },
  { "name": "Khormuj", "code": "khormuj", "lat": "28.654167", "lng": "51.380278" },
  { "name": "Ahram", "code": "ahram", "lat": "28.882500", "lng": "51.274167" },
  { "name": "Borazjan", "code": "borazjan", "lat": "29.266944", "lng": "51.218611" },
  { "name": "Jam", "code": "jam", "lat": "27.827778", "lng": "52.326389" },
  { "name": "Kaki", "code": "kaki", "lat": "28.338611", "lng": "51.523611" },
  { "name": "Asaluyeh", "code": "asaluyeh", "lat": "27.476111", "lng": "52.607500" },
  { "name": "Tehran", "code": "tehran", "lat": "35.689167", "lng": "51.388889" },
  { "name": "Varamin", "code": "varamin", "lat": "35.324167", "lng": "51.645833" },
  { "name": "Firuzkuh", "code": "firuzkuh", "lat": "35.756944", "lng": "52.770556" },
  { "name": "Rey", "code": "rey", "lat": "35.593611", "lng": "51.440000" },
  { "name": "Damavand", "code": "damavand", "lat": "35.718333", "lng": "52.065000" },
  { "name": "Eslamshahr", "code": "eslamshahr", "lat": "35.552222", "lng": "51.235000" },
  { "name": "Rudhen", "code": "rudhen", "lat": "35.732778", "lng": "51.911389" },
  { "name": "Lavasan", "code": "lavasan", "lat": "35.823056", "lng": "51.628611" },
  { "name": "Bumahen", "code": "bumahen", "lat": "35.729722", "lng": "51.861944" },
  { "name": "Tajrish", "code": "tajrish", "lat": "35.804444", "lng": "51.425556" },
  { "name": "Fasham", "code": "fasham", "lat": "35.928611", "lng": "51.525833" },
  { "name": "Kahrizak", "code": "kahrizak", "lat": "35.517222", "lng": "51.360556" },
  { "name": "Pakdasht", "code": "pakdasht", "lat": "35.481667", "lng": "51.680833" },
  { "name": "Chahardangeh", "code": "chahardangeh", "lat": "35.603611", "lng": "51.309167" },
  { "name": "Sharifabad", "code": "sharifabad", "lat": "35.427222", "lng": "51.785000" },
  { "name": "Qarchak", "code": "qarchak", "lat": "35.428611", "lng": "51.575000" },
  { "name": "Baqershahr", "code": "baqershahr", "lat": "35.531944", "lng": "51.402778" },
  { "name": "Shahriar", "code": "shahriar", "lat": "35.658889", "lng": "51.057778" },
  { "name": "Robat Karim", "code": "robat-karim", "lat": "35.484722", "lng": "51.082778" },
  { "name": "Qods", "code": "qods", "lat": "35.721389", "lng": "51.108333" },
  { "name": "Malard", "code": "malard", "lat": "35.665833", "lng": "50.976667" },
  { "name": "Shahr-e Kord", "code": "shahr-e-kord", "lat": "32.325556", "lng": "50.864444" },
  { "name": "Farsan", "code": "farsan", "lat": "32.256944", "lng": "50.564167" },
  { "name": "Borujen", "code": "borujen", "lat": "31.965278", "lng": "51.287222" },
  { "name": "Chelgerd", "code": "chelgerd", "lat": "32.466667", "lng": "50.133333" },
  { "name": "Ardal", "code": "ardal", "lat": "31.995833", "lng": "50.658333" },
  { "name": "Lordegan", "code": "lordegan", "lat": "31.510000", "lng": "50.826111" },
  { "name": "Qaen", "code": "qaen", "lat": "33.726667", "lng": "59.184444" },
  { "name": "Ferdows", "code": "ferdows", "lat": "34.018611", "lng": "58.172222" },
  { "name": "Birjand", "code": "birjand", "lat": "32.866389", "lng": "59.221111" },
  { "name": "Nehbandan", "code": "nehbandan", "lat": "31.541667", "lng": "60.036389" },
  { "name": "Sarbisheh", "code": "sarbisheh", "lat": "32.575556", "lng": "59.798333" },
  { "name": "Mashhad", "code": "mashhad", "lat": "36.297222", "lng": "59.605833" },
  { "name": "Neyshabur", "code": "neyshabur", "lat": "36.213333", "lng": "58.795833" },
  { "name": "Sabzevar", "code": "sabzevar", "lat": "36.216389", "lng": "57.681944" },
  { "name": "Kashmar", "code": "kashmar", "lat": "35.238333", "lng": "58.465556" },
  { "name": "Gonabad", "code": "gonabad", "lat": "34.352778", "lng": "58.683611" },
  { "name": "Tabas", "code": "tabas", "lat": "33.595833", "lng": "56.924444" },
  { "name": "Torbat-e Heydarieh", "code": "torbat-e-heydarieh", "lat": "35.274167", "lng": "59.219444" },
  { "name": "Khaf", "code": "khaf", "lat": "34.576389", "lng": "60.140833" },
  { "name": "Torbat-e Jam", "code": "torbat-e-jam", "lat": "35.244167", "lng": "60.622500" },
  { "name": "Taybad", "code": "taybad", "lat": "34.740000", "lng": "60.775556" },
  { "name": "Quchan", "code": "quchan", "lat": "37.106111", "lng": "58.509444" },
  { "name": "Sarakhs", "code": "sarakhs", "lat": "36.544722", "lng": "61.157778" },
  { "name": "Fariman", "code": "fariman", "lat": "35.706944", "lng": "59.697500" },
  { "name": "Chenaran", "code": "chenaran", "lat": "36.645556", "lng": "59.121111" },
  { "name": "Dargaz", "code": "dargaz", "lat": "37.444444", "lng": "59.108056" },
  { "name": "Tarqabeh", "code": "tarqabeh", "lat": "36.316667", "lng": "59.383333" },
  { "name": "Bojnurd", "code": "bojnurd", "lat": "37.475000", "lng": "57.333333" },
  { "name": "Esfarayen", "code": "esfarayen", "lat": "37.076389", "lng": "57.510000" },
  { "name": "Jajarm", "code": "jajarm", "lat": "36.950000", "lng": "56.380000" },
  { "name": "Shirvan", "code": "shirvan", "lat": "37.396667", "lng": "57.929444" },
  { "name": "Ashkhaneh", "code": "ashkhaneh", "lat": "37.561667", "lng": "56.921389" },
  { "name": "Ahvaz", "code": "ahvaz", "lat": "31.320278", "lng": "48.669167" },
  { "name": "Iranshahr", "code": "iranshahr", "lat": "27.202222", "lng": "60.684722" },
  { "name": "Shush", "code": "shush", "lat": "32.194167", "lng": "48.257500" },
  { "name": "Abadan", "code": "abadan", "lat": "30.339167", "lng": "48.304167" },
  { "name": "Khorramshahr", "code": "khorramshahr", "lat": "30.439722", "lng": "48.166389" },
  { "name": "Masjed Soleyman", "code": "masjed-soleyman", "lat": "31.936389", "lng": "49.303611" },
  { "name": "Izeh", "code": "izeh", "lat": "31.833889", "lng": "49.866944" },
  { "name": "Shushtar", "code": "shushtar", "lat": "32.049722", "lng": "48.856667" },
  { "name": "Andimeshk", "code": "andimeshk", "lat": "32.460000", "lng": "48.352778" },
  { "name": "Susangerd", "code": "susangerd", "lat": "31.560833", "lng": "48.183056" },
  { "name": "Hoveyzeh", "code": "hoveyzeh", "lat": "31.461944", "lng": "48.073889" },
  { "name": "Dezful", "code": "dezful", "lat": "32.381667", "lng": "48.405833" },
  { "name": "Shadegan", "code": "shadegan", "lat": "30.649722", "lng": "48.664722" },
  { "name": "Bandar-e Mahshahr", "code": "bandar-e-mahshahr", "lat": "30.556389", "lng": "49.198056" },
  { "name": "Bandar-e Emam Khomeyni", "code": "bandar-e-emam-khomeyni", "lat": "30.433889", "lng": "49.105556" },
  { "name": "Behbahan", "code": "behbahan", "lat": "30.595833", "lng": "50.241667" },
  { "name": "Ramhormoz", "code": "ramhormoz", "lat": "31.280000", "lng": "49.603611" },
  { "name": "Bagh-e Malek", "code": "bagh-e-malek", "lat": "31.523056", "lng": "49.886389" },
  { "name": "Hendijan", "code": "hendijan", "lat": "30.236389", "lng": "49.711944" },
  { "name": "Lali", "code": "lali", "lat": "32.329722", "lng": "49.093611" },
  { "name": "Ramshir", "code": "ramshir", "lat": "30.894722", "lng": "49.407778" },
  { "name": "Hamidiyeh", "code": "hamidiyeh", "lat": "31.481944", "lng": "48.433056" },
  { "name": "Mollasani", "code": "mollasani", "lat": "31.583611", "lng": "48.885833" },
  { "name": "Zanjan", "code": "zanjan", "lat": "36.676389", "lng": "48.496111" },
  { "name": "Abhar", "code": "abhar", "lat": "36.146667", "lng": "49.218056" },
  { "name": "Khodabandeh", "code": "khodabandeh", "lat": "36.115278", "lng": "48.595556" },
  { "name": "Mahneshan", "code": "mahneshan", "lat": "36.744167", "lng": "47.673611" },
  { "name": "Khorramdarreh", "code": "khorramdarreh", "lat": "36.208611", "lng": "49.186944" },
  { "name": "Ab Bar", "code": "ab-bar", "lat": "36.923056", "lng": "48.723056" },
  { "name": "Qeydar", "code": "qeydar", "lat": "36.116667", "lng": "48.583333" },
  { "name": "Semnan", "code": "semnan", "lat": "35.576944", "lng": "53.392222" },
  { "name": "Shahrud", "code": "shahrud", "lat": "36.418056", "lng": "54.976389" },
  { "name": "Garmsar", "code": "garmsar", "lat": "35.218333", "lng": "52.340556" },
  { "name": "Ivanki", "code": "ivanki", "lat": "35.343611", "lng": "52.068889" },
  { "name": "Damghan", "code": "damghan", "lat": "36.168056", "lng": "54.348056" },
  { "name": "Bastam", "code": "bastam", "lat": "36.483611", "lng": "54.961944" },
  { "name": "Zahedan", "code": "zahedan", "lat": "29.496389", "lng": "60.862778" },
  { "name": "Chabahar", "code": "chabahar", "lat": "25.291944", "lng": "60.643056" },
  { "name": "Khash", "code": "khash", "lat": "28.221111", "lng": "61.215833" },
  { "name": "Saravan", "code": "saravan", "lat": "27.370556", "lng": "62.334722" },
  { "name": "Zabol", "code": "zabol", "lat": "31.030556", "lng": "61.497222" },
  { "name": "Sarbaz", "code": "sarbaz", "lat": "26.633333", "lng": "61.466667" },
  { "name": "Iranshahr", "code": "iranshahr", "lat": "27.202222", "lng": "60.684722" },
  { "name": "Mirjaveh", "code": "mirjaveh", "lat": "29.014722", "lng": "61.451389" },
  { "name": "Shiraz", "code": "shiraz", "lat": "29.610278", "lng": "52.531111" },
  { "name": "Eqlid", "code": "eqlid", "lat": "30.886111", "lng": "52.689722" },
  { "name": "Darab", "code": "darab", "lat": "28.751944", "lng": "54.544444" },
  { "name": "Fasa", "code": "fasa", "lat": "28.938333", "lng": "53.648333" },
  { "name": "Marvdasht", "code": "marvdasht", "lat": "29.874167", "lng": "52.802500" },
  { "name": "Abadeh", "code": "abadeh", "lat": "31.160833", "lng": "52.650556" },
  { "name": "Kazerun", "code": "kazerun", "lat": "29.619444", "lng": "51.653889" },
  { "name": "Sepidan", "code": "sepidan", "lat": "30.260556", "lng": "51.984167" },
  { "name": "Lar", "code": "lar", "lat": "27.681111", "lng": "54.340278" },
  { "name": "Firuzabad", "code": "firuzabad", "lat": "28.843889", "lng": "52.570556" },
  { "name": "Jahrom", "code": "jahrom", "lat": "28.500000", "lng": "53.560556" },
  { "name": "Estahban", "code": "estahban", "lat": "29.126389", "lng": "54.041944" },
  { "name": "Lamerd", "code": "lamerd", "lat": "27.341944", "lng": "53.178889" },
  { "name": "Mohr", "code": "mohr", "lat": "27.555278", "lng": "52.883611" },
  { "name": "Hajiabad", "code": "hajiabad", "lat": "28.357222", "lng": "54.423611" },
  { "name": "Ardakan", "code": "ardakan", "lat": "32.310000", "lng": "54.017500" },
  { "name": "Safa Shahr", "code": "safa-shahr", "lat": "30.613611", "lng": "53.195278" },
  { "name": "Arsanjan", "code": "arsanjan", "lat": "29.912222", "lng": "53.308333" },
  { "name": "Surian", "code": "surian", "lat": "30.455833", "lng": "53.650833" },
  { "name": "Farashband", "code": "farashband", "lat": "28.871389", "lng": "52.091667" },
  { "name": "Sarvestan", "code": "sarvestan", "lat": "29.273333", "lng": "53.220278" },
  { "name": "Zarqan", "code": "zarqan", "lat": "29.771667", "lng": "52.721667" },
  { "name": "Kavar", "code": "kavar", "lat": "29.196667", "lng": "52.689722" },
  { "name": "Bavanat", "code": "bavanat", "lat": "30.475000", "lng": "53.616667" },
  { "name": "Kharameh", "code": "kharameh", "lat": "29.500278", "lng": "53.315833" },
  { "name": "Khenj", "code": "khenj", "lat": "27.883333", "lng": "53.433333" },
  { "name": "Qazvin", "code": "qazvin", "lat": "36.268889", "lng": "50.004167" },
  { "name": "Takestan", "code": "takestan", "lat": "36.070556", "lng": "49.695833" },
  { "name": "Abyek", "code": "abyek", "lat": "36.066667", "lng": "50.533333" },
  { "name": "Buin Zahra", "code": "buin-zahra", "lat": "35.766667", "lng": "50.057778" },
  { "name": "Qom", "code": "qom", "lat": "34.639944", "lng": "50.875944" },
  { "name": "Taleqan", "code": "taleqan", "lat": "36.175000", "lng": "50.766667" },
  { "name": "Nazarabad", "code": "nazarabad", "lat": "35.953889", "lng": "50.605833" },
  { "name": "Eshtehard", "code": "eshtehard", "lat": "35.725556", "lng": "50.366389" },
  { "name": "Hashtgerd", "code": "hashtgerd", "lat": "35.961944", "lng": "50.680000" },
  { "name": "Karaj", "code": "karaj", "lat": "35.835556", "lng": "50.970833" },
  { "name": "Mahdasht", "code": "mahdasht", "lat": "35.728056", "lng": "50.813611" },
  { "name": "Sanandaj", "code": "sanandaj", "lat": "35.314722", "lng": "46.998611" },
  { "name": "Baneh", "code": "baneh", "lat": "35.997500", "lng": "45.885278" },
  { "name": "Bijar", "code": "bijar", "lat": "35.874167", "lng": "47.605000" },
  { "name": "Saqqez", "code": "saqqez", "lat": "36.249722", "lng": "46.273333" },
  { "name": "Qorveh", "code": "qorveh", "lat": "35.166389", "lng": "47.804444" },
  { "name": "Marivan", "code": "marivan", "lat": "35.518056", "lng": "46.175833" },
  { "name": "Salavatabad", "code": "salavatabad", "lat": "35.166389", "lng": "47.700000" },
  { "name": "Hasanabad", "code": "hasanabad", "lat": "35.368056", "lng": "51.238889" },
  { "name": "Kerman", "code": "kerman", "lat": "30.283333", "lng": "57.083333" },
  { "name": "Ravar", "code": "ravar", "lat": "31.265556", "lng": "56.805556" },
  { "name": "Anar", "code": "anar", "lat": "30.873333", "lng": "55.270556" },
  { "name": "Kuhbanan", "code": "kuhbanan", "lat": "31.410278", "lng": "56.281944" },
  { "name": "Rafsanjan", "code": "rafsanjan", "lat": "30.406667", "lng": "55.993889" },
  { "name": "Baft", "code": "baft", "lat": "29.233056", "lng": "56.602222" },
  { "name": "Sirjan", "code": "sirjan", "lat": "29.451389", "lng": "55.680833" },
  { "name": "Kahnuj", "code": "kahnuj", "lat": "27.951944", "lng": "57.699444" },
  { "name": "Zarand", "code": "zarand", "lat": "30.812778", "lng": "56.563889" },
  { "name": "Bam", "code": "bam", "lat": "29.106111", "lng": "58.356944" },
  { "name": "Jiroft", "code": "jiroft", "lat": "28.678056", "lng": "57.740556" },
  { "name": "Bardsir", "code": "bardsir", "lat": "29.927500", "lng": "56.572222" },
  { "name": "Kermanshah", "code": "kermanshah", "lat": "34.314167", "lng": "47.065278" },
  { "name": "Eslamabad-e Gharb", "code": "eslamabad-e-gharb", "lat": "34.109444", "lng": "46.527500" },
  { "name": "Kangavar", "code": "kangavar", "lat": "34.504167", "lng": "47.965278" },
  { "name": "Sonqor", "code": "sonqor", "lat": "34.783611", "lng": "47.600278" },
  { "name": "Qasr-e Shirin", "code": "qasr-e-shirin", "lat": "34.515556", "lng": "45.579167" },
  { "name": "Harsin", "code": "harsin", "lat": "34.272222", "lng": "47.586111" },
  { "name": "Sahneh", "code": "sahneh", "lat": "34.481389", "lng": "47.690833" },
  { "name": "Paveh", "code": "paveh", "lat": "35.043333", "lng": "46.356389" },
  { "name": "Javanrud", "code": "javanrud", "lat": "34.806389", "lng": "46.491389" },
  { "name": "Yasuj", "code": "yasuj", "lat": "30.668333", "lng": "51.588056" },
  { "name": "Gachsaran", "code": "gachsaran", "lat": "30.356389", "lng": "50.798056" },
  { "name": "Dogonbadan", "code": "dogonbadan", "lat": "30.358889", "lng": "50.798056" },
  { "name": "Sisakht", "code": "sisakht", "lat": "30.862778", "lng": "51.455278" },
  { "name": "Dehdasht", "code": "dehdasht", "lat": "30.795833", "lng": "50.565000" },
  { "name": "Gorgan", "code": "gorgan", "lat": "36.838611", "lng": "54.434444" },
  { "name": "Aq Qala", "code": "aq-qala", "lat": "37.013889", "lng": "54.455000" },
  { "name": "Gonbad-e Kavus", "code": "gonbad-e-kavus", "lat": "37.250000", "lng": "55.167222" },
  { "name": "Aliabad-e Katul", "code": "aliabad-e-katul", "lat": "36.910278", "lng": "54.887222" },
  { "name": "Kordkuy", "code": "kordkuy", "lat": "36.793056", "lng": "54.112222" },
  { "name": "Kalaleh", "code": "kalaleh", "lat": "37.380833", "lng": "55.491667" },
  { "name": "Azadshahr", "code": "azadshahr", "lat": "37.086389", "lng": "55.172222" },
  { "name": "Ramian", "code": "ramian", "lat": "37.016111", "lng": "55.141111" },
  { "name": "Rasht", "code": "rasht", "lat": "37.280833", "lng": "49.583056" },
  { "name": "Manjil", "code": "manjil", "lat": "36.744444", "lng": "49.401944" },
  { "name": "Langarud", "code": "langarud", "lat": "37.197222", "lng": "50.153611" },
  { "name": "Talesh", "code": "talesh", "lat": "37.801389", "lng": "48.907778" },
  { "name": "Astara", "code": "astara", "lat": "38.429167", "lng": "48.871944" },
  { "name": "Masuleh", "code": "masuleh", "lat": "37.155000", "lng": "48.989444" },
  { "name": "Rudbar", "code": "rudbar", "lat": "36.824444", "lng": "49.426944" },
  { "name": "Fuman", "code": "fuman", "lat": "37.223889", "lng": "49.312500" },
  { "name": "Someh Sara", "code": "someh-sara", "lat": "37.311667", "lng": "49.321667" },
  { "name": "Hashtpar", "code": "hashtpar", "lat": "37.799167", "lng": "48.905278" },
  { "name": "Masal", "code": "masal", "lat": "37.363056", "lng": "49.132778" },
  { "name": "Shaft", "code": "shaft", "lat": "37.171111", "lng": "49.399722" },
  { "name": "Amlash", "code": "amlash", "lat": "37.097500", "lng": "50.186389" },
  { "name": "Lahijan", "code": "lahijan", "lat": "37.207222", "lng": "50.004167" },
  { "name": "Khorramabad", "code": "khorramabad", "lat": "33.487778", "lng": "48.355833" },
  { "name": "Mahshahr", "code": "mahshahr", "lat": "30.556389", "lng": "49.198056" },
  { "name": "Dezful", "code": "dezful", "lat": "32.381667", "lng": "48.405833" },
  { "name": "Borujerd", "code": "borujerd", "lat": "33.897222", "lng": "48.751667" },
  { "name": "Dorud", "code": "dorud", "lat": "33.493333", "lng": "49.075000" },
  { "name": "Aligudarz", "code": "aligudarz", "lat": "33.400556", "lng": "49.694722" },
  { "name": "Azna", "code": "azna", "lat": "33.453611", "lng": "49.455278" },
  { "name": "Nurabad", "code": "nurabad", "lat": "34.073333", "lng": "47.972222" },
  { "name": "Kuhdasht", "code": "kuhdasht", "lat": "33.533333", "lng": "47.600000" },
  { "name": "Aleshtar", "code": "aleshtar", "lat": "33.863611", "lng": "48.261944" },
  { "name": "Sari", "code": "sari", "lat": "36.563333", "lng": "53.060000" },
  { "name": "Amol", "code": "amol", "lat": "36.469444", "lng": "52.350833" },
  { "name": "Babol", "code": "babol", "lat": "36.551389", "lng": "52.678889" },
  { "name": "Babolsar", "code": "babolsar", "lat": "36.702500", "lng": "52.657500" },
  { "name": "Behshahr", "code": "behshahr", "lat": "36.692222", "lng": "53.552500" },
  { "name": "Tonekabon", "code": "tonekabon", "lat": "36.816389", "lng": "50.873611" },
  { "name": "Juybar", "code": "juybar", "lat": "36.641111", "lng": "52.912222" },
  { "name": "Chalus", "code": "chalus", "lat": "36.655000", "lng": "51.420833" },
  { "name": "Ramsar", "code": "ramsar", "lat": "36.916944", "lng": "50.673611" },
  { "name": "Qaem Shahr", "code": "qaem-shahr", "lat": "36.463056", "lng": "52.860556" },
  { "name": "Neka", "code": "neka", "lat": "36.648611", "lng": "53.299167" },
  { "name": "Nur", "code": "nur", "lat": "36.571389", "lng": "52.006944" },
  { "name": "Baladeh", "code": "baladeh", "lat": "36.200000", "lng": "51.566667" },
  { "name": "Nowshahr", "code": "nowshahr", "lat": "36.648889", "lng": "51.496111" },
  { "name": "Mahmudabad", "code": "mahmudabad", "lat": "36.631944", "lng": "52.263056" },
  { "name": "Arak", "code": "arak", "lat": "34.091667", "lng": "49.689167" },
  { "name": "Ashtian", "code": "ashtian", "lat": "34.521667", "lng": "50.006111" },
  { "name": "Tafresh", "code": "tafresh", "lat": "34.691944", "lng": "50.012778" },
  { "name": "Khomein", "code": "khomein", "lat": "33.642222", "lng": "50.078889" },
  { "name": "Delijan", "code": "delijan", "lat": "33.990556", "lng": "50.683611" },
  { "name": "Saveh", "code": "saveh", "lat": "35.021389", "lng": "50.356667" },
  { "name": "Mahallat", "code": "mahallat", "lat": "33.911111", "lng": "50.455278" },
  { "name": "Shazand", "code": "shazand", "lat": "33.931667", "lng": "49.411667" },
  { "name": "Bandar Abbas", "code": "bandar-abbas", "lat": "27.183333", "lng": "56.266667" },
  { "name": "Qeshm", "code": "qeshm", "lat": "26.958056", "lng": "56.271667" },
  { "name": "Kish", "code": "kish", "lat": "26.557500", "lng": "54.019444" },
  { "name": "Bandar Lengeh", "code": "bandar-lengeh", "lat": "26.557500", "lng": "54.880556" },
  { "name": "Bastak", "code": "bastak", "lat": "27.199167", "lng": "54.366667" },
  { "name": "Hajiabad", "code": "hajiabad", "lat": "28.357222", "lng": "54.423611" },
  { "name": "Dehbarez", "code": "dehbarez", "lat": "27.441667", "lng": "57.183333" },
  { "name": "Minab", "code": "minab", "lat": "27.146667", "lng": "57.080000" },
  { "name": "Bandar Jask", "code": "bandar-jask", "lat": "25.643889", "lng": "57.774444" },
  { "name": "Bandar Khamir", "code": "bandar-khamir", "lat": "26.952222", "lng": "55.585000" },
  { "name": "Hamadan", "code": "hamadan", "lat": "34.799167", "lng": "48.514444" },
  { "name": "Malayer", "code": "malayer", "lat": "34.294167", "lng": "48.821667" },
  { "name": "Nahavand", "code": "nahavand", "lat": "34.188611", "lng": "48.376944" },
  { "name": "Razan", "code": "razan", "lat": "35.386389", "lng": "49.033611" },
  { "name": "Asadabad", "code": "asadabad", "lat": "34.782500", "lng": "48.118611" },
  { "name": "Bahar", "code": "bahar", "lat": "34.906944", "lng": "48.441389" },
  { "name": "Yazd", "code": "yazd", "lat": "31.897222", "lng": "54.367500" },
  { "name": "Taft", "code": "taft", "lat": "31.743889", "lng": "54.204167" },
  { "name": "Ardakan", "code": "ardakan", "lat": "32.310000", "lng": "54.017500" },
  { "name": "Abarkuh", "code": "abarkuh", "lat": "31.128889", "lng": "53.282222" },
  { "name": "Meybod", "code": "meybod", "lat": "32.250000", "lng": "54.016667" },
  { "name": "Tabas", "code": "tabas", "lat": "33.595833", "lng": "56.924444" },
  { "name": "Bafq", "code": "bafq", "lat": "31.603611", "lng": "55.402778" },
  { "name": "Mehriz", "code": "mehriz", "lat": "31.585833", "lng": "54.441667" },
  { "name": "Ashkezar", "code": "ashkezar", "lat": "32.000000", "lng": "54.200000" },
  { "name": "Herat", "code": "herat", "lat": "31.816667", "lng": "54.366667" },
  { "name": "Khvajeh", "code": "khvajeh", "lat": "32.200000", "lng": "53.766667" },
  { "name": "Zarach", "code": "zarach", "lat": "32.383333", "lng": "54.233333" }
]